[
    {
        "Name": "Harvard Gardens",
        "address": "316 Cambridge St, Boston, MA 02114",
        "Rating": 4.4,
        "Price": "$20\u201330",
        "Opening Hour": "Closed \u22c5 Opens 11:30\u202fAM",
        "Description": "316 Cambridge St, Boston, MA 02114, American restaurant",
        "Latitude": 42.360930599999996,
        "Longitude": -71.0689398,
        "Distance (km)": 0.87,
        "session_id": "aef6d839-c02e-4c98-856b-752eb3a31fb4",
        "generatedAt": "2025-03-26T08:41:08.639734"
    },
    {
        "Name": "French Quarter",
        "address": "545 Washington St, Boston, MA 02111",
        "Rating": 4.4,
        "Price": "$30\u201350",
        "Opening Hour": "Closed \u22c5 Opens 5\u202fPM",
        "Description": "545 Washington St, Boston, MA 02111, Creole restaurant",
        "Latitude": 42.353895,
        "Longitude": -71.0623501,
        "Distance (km)": 0.64,
        "session_id": "aef6d839-c02e-4c98-856b-752eb3a31fb4",
        "generatedAt": "2025-03-26T08:41:08.639734"
    },
    {
        "Name": "State Street Provisions",
        "address": "255 State St, Boston, MA 02109",
        "Rating": 4.4,
        "Price": "$20\u201330",
        "Opening Hour": "Closed \u22c5 Opens 11\u202fAM",
        "Description": "255 State St, Boston, MA 02109, American restaurant",
        "Latitude": 42.3595128,
        "Longitude": -71.05141689999999,
        "Distance (km)": 0.6,
        "session_id": "aef6d839-c02e-4c98-856b-752eb3a31fb4",
        "generatedAt": "2025-03-26T08:41:08.639734"
    },
    {
        "Name": "Emmets",
        "address": "6 Beacon St, Boston, MA 02108",
        "Rating": 4.5,
        "Price": "$20\u201330",
        "Opening Hour": "Closed \u22c5 Opens 11\u202fAM",
        "Description": "6 Beacon St, Boston, MA 02108, Irish restaurant",
        "Latitude": 42.3581498,
        "Longitude": -71.061521,
        "Distance (km)": 0.26,
        "session_id": "aef6d839-c02e-4c98-856b-752eb3a31fb4",
        "generatedAt": "2025-03-26T08:41:08.639734"
    },
    {
        "Name": "Theo's Cozy Corner Restaurant",
        "address": "162 Salem St, Boston, MA 02113",
        "Rating": 4.7,
        "Price": "$10\u201320",
        "Opening Hour": "Closed \u22c5 Opens 6\u202fAM",
        "Description": "162 Salem St, Boston, MA 02113, American restaurant",
        "Latitude": 42.3660533,
        "Longitude": -71.055026,
        "Distance (km)": 0.84,
        "session_id": "aef6d839-c02e-4c98-856b-752eb3a31fb4",
        "generatedAt": "2025-03-26T08:41:08.639734"
    },
    {
        "Name": "Bostonia Public House",
        "address": "131 State St, Boston, MA 02109",
        "Rating": 4.4,
        "Price": "$30\u201350",
        "Opening Hour": "Closed \u22c5 Opens 11:30\u202fAM",
        "Description": "131 State St, Boston, MA 02109, American restaurant",
        "Latitude": 42.3591358,
        "Longitude": -71.05440999999999,
        "Distance (km)": 0.35,
        "session_id": "aef6d839-c02e-4c98-856b-752eb3a31fb4",
        "generatedAt": "2025-03-26T08:41:08.639734"
    },
    {
        "Name": "Chart House",
        "address": "60 Long Wharf, Boston, MA 02110",
        "Rating": 4.2,
        "Price": "$50\u2013100",
        "Opening Hour": "Closed \u22c5 Opens 11\u202fAM",
        "Description": "60 Long Wharf, Boston, MA 02110, Seafood restaurant",
        "Latitude": 42.3601688,
        "Longitude": -71.0495078,
        "Distance (km)": 0.76,
        "session_id": "aef6d839-c02e-4c98-856b-752eb3a31fb4",
        "generatedAt": "2025-03-26T08:41:08.639734"
    },
    {
        "Name": "Central Wharf Co.",
        "address": "160 Milk St, Boston, MA 02109",
        "Rating": 4.4,
        "Price": "$10\u201320",
        "Opening Hour": "Closed \u22c5 Opens 4\u202fPM Thu",
        "Description": "160 Milk St, Boston, MA 02109, American restaurant",
        "Latitude": 42.358711299999996,
        "Longitude": -71.0526801,
        "Distance (km)": 0.49,
        "session_id": "aef6d839-c02e-4c98-856b-752eb3a31fb4",
        "generatedAt": "2025-03-26T08:41:08.639734"
    },
    {
        "Name": "Blu",
        "address": "4 Avery St, Boston, MA 02111",
        "Rating": 4.3,
        "Price": "$50\u2013100",
        "Opening Hour": "Closed \u22c5 Opens 5\u202fPM",
        "Description": "4 Avery St, Boston, MA 02111, American restaurant",
        "Latitude": 42.3531074,
        "Longitude": -71.062973,
        "Distance (km)": 0.75,
        "session_id": "aef6d839-c02e-4c98-856b-752eb3a31fb4",
        "generatedAt": "2025-03-26T08:41:08.639734"
    },
    {
        "Name": "Flavor Boom! Milk Street",
        "address": "155 Milk St, Boston, MA 02109",
        "Rating": 4.8,
        "Price": "$10\u201320",
        "Opening Hour": "Closed \u22c5 Opens 11\u202fAM",
        "Description": "155 Milk St, Boston, MA 02109, Fast food restaurant",
        "Latitude": 42.3578526,
        "Longitude": -71.0540633,
        "Distance (km)": 0.4,
        "session_id": "aef6d839-c02e-4c98-856b-752eb3a31fb4",
        "generatedAt": "2025-03-26T08:41:08.639734"
    },
    {
        "Name": "The Bostonian Hotel Boston",
        "address": "26 North St, Boston, MA 02109",
        "Rating": 4.2,
        "Price": "$173",
        "Opening Hour": null,
        "Description": "26 North St, Boston, MA 02109, Hotel",
        "Latitude": 42.3609819,
        "Longitude": -71.05586439999999,
        "Distance (km)": 0.32,
        "session_id": "ecadc5df-ce4c-4e66-bff1-f0b65b333bb5",
        "generatedAt": "2025-03-26T08:41:11.138371"
    },
    {
        "Name": "Hyatt Regency Boston",
        "address": "One Ave de Lafayette, Boston, MA 02111",
        "Rating": 4.3,
        "Price": "$156",
        "Opening Hour": null,
        "Description": "One Ave de Lafayette, Boston, MA 02111, Hotel",
        "Latitude": 42.353229299999995,
        "Longitude": -71.06090999999999,
        "Distance (km)": 0.67,
        "session_id": "ecadc5df-ce4c-4e66-bff1-f0b65b333bb5",
        "generatedAt": "2025-03-26T08:41:11.138371"
    },
    {
        "Name": "Meco Hotels",
        "address": "234 Friend St, Boston, MA 02114",
        "Rating": 4.5,
        "Price": "$120",
        "Opening Hour": null,
        "Description": "234 Friend St, Boston, MA 02114, Hotel",
        "Latitude": 42.364340399999996,
        "Longitude": -71.0611284,
        "Distance (km)": 0.63,
        "session_id": "ecadc5df-ce4c-4e66-bff1-f0b65b333bb5",
        "generatedAt": "2025-03-26T08:41:11.138371"
    },
    {
        "Name": "YOTEL Boston",
        "address": "65 Seaport Blvd, Boston, MA 02210",
        "Rating": 4,
        "Price": "$136",
        "Opening Hour": null,
        "Description": "65 Seaport Blvd, Boston, MA 02210, Hotel",
        "Latitude": 42.3523364,
        "Longitude": -71.047215,
        "Distance (km)": 1.19,
        "session_id": "ecadc5df-ce4c-4e66-bff1-f0b65b333bb5",
        "generatedAt": "2025-03-26T08:41:11.138371"
    },
    {
        "Name": "citizenM Boston North Station hotel",
        "address": "70 Causeway St, Boston, MA 02114",
        "Rating": 4.3,
        "Price": "$195",
        "Opening Hour": null,
        "Description": "70 Causeway St, Boston, MA 02114, Hotel",
        "Latitude": 42.365561799999995,
        "Longitude": -71.0618501,
        "Distance (km)": 0.78,
        "session_id": "ecadc5df-ce4c-4e66-bff1-f0b65b333bb5",
        "generatedAt": "2025-03-26T08:41:11.138371"
    },
    {
        "Name": "Boston Marriott Long Wharf",
        "address": "296 State St, Boston, MA 02109",
        "Rating": 4.4,
        "Price": "$275",
        "Opening Hour": null,
        "Description": "296 State St, Boston, MA 02109, Hotel",
        "Latitude": 42.3599928,
        "Longitude": -71.0510743,
        "Distance (km)": 0.63,
        "session_id": "ecadc5df-ce4c-4e66-bff1-f0b65b333bb5",
        "generatedAt": "2025-03-26T08:41:11.138371"
    },
    {
        "Name": "Wyndham Boston Beacon Hill",
        "address": "5 Blossom St, Boston, MA 02114",
        "Rating": 3.8,
        "Price": "$187",
        "Opening Hour": null,
        "Description": "5 Blossom St, Boston, MA 02114, Hotel",
        "Latitude": 42.361719,
        "Longitude": -71.0667014,
        "Distance (km)": 0.73,
        "session_id": "ecadc5df-ce4c-4e66-bff1-f0b65b333bb5",
        "generatedAt": "2025-03-26T08:41:11.138371"
    },
    {
        "Name": "The Boxer Boston",
        "address": "107 Merrimac St, Boston, MA 02114",
        "Rating": 4.1,
        "Price": "$154",
        "Opening Hour": null,
        "Description": "107 Merrimac St, Boston, MA 02114, Hotel",
        "Latitude": 42.3638797,
        "Longitude": -71.06251569999999,
        "Distance (km)": 0.63,
        "session_id": "ecadc5df-ce4c-4e66-bff1-f0b65b333bb5",
        "generatedAt": "2025-03-26T08:41:11.138371"
    },
    {
        "Name": "The Dagny Boston",
        "address": "89 Broad St, Boston, MA 02110",
        "Rating": 4.3,
        "Price": "$183",
        "Opening Hour": null,
        "Description": "89 Broad St, Boston, MA 02110, Hotel",
        "Latitude": 42.3574115,
        "Longitude": -71.0530807,
        "Distance (km)": 0.49,
        "session_id": "ecadc5df-ce4c-4e66-bff1-f0b65b333bb5",
        "generatedAt": "2025-03-26T08:41:11.138371"
    },
    {
        "Name": "The Godfrey Hotel Boston",
        "address": "505 Washington St, Boston, MA 02111",
        "Rating": 4.5,
        "Price": "$182",
        "Opening Hour": null,
        "Description": "505 Washington St, Boston, MA 02111, Hotel",
        "Latitude": 42.354720199999996,
        "Longitude": -71.06152039999999,
        "Distance (km)": 0.53,
        "session_id": "ecadc5df-ce4c-4e66-bff1-f0b65b333bb5",
        "generatedAt": "2025-03-26T08:41:11.138371"
    },
    {
        "Name": "The Innovation Trail",
        "address": "30 School St, Boston, MA 02108",
        "Rating": 5,
        "Price": null,
        "Opening Hour": "Open 24 hours",
        "Description": "30 School St, Boston, MA 02108, Tourist attraction",
        "Latitude": 42.3575947,
        "Longitude": -71.0592341,
        "Distance (km)": 0.16,
        "session_id": "bb613a78-1807-45d1-a953-1341b7333969",
        "generatedAt": "2025-03-26T08:41:32.528160"
    },
    {
        "Name": "Fan Pier Park",
        "address": "1 Courthouse Wy, Boston, MA 02210",
        "Rating": 4.8,
        "Price": null,
        "Opening Hour": "Open 24 hours",
        "Description": "1 Courthouse Wy, Boston, MA 02210, Tourist attraction",
        "Latitude": 42.354875299999996,
        "Longitude": -71.0462482,
        "Distance (km)": 1.12,
        "session_id": "bb613a78-1807-45d1-a953-1341b7333969",
        "generatedAt": "2025-03-26T08:41:32.528160"
    },
    {
        "Name": "Black Heritage Trail",
        "address": "46 Joy St, Boston, MA 02114",
        "Rating": 4.5,
        "Price": null,
        "Opening Hour": "Closed \u22c5 Opens 10\u202fAM",
        "Description": "46 Joy St, Boston, MA 02114, Tourist attraction",
        "Latitude": 42.3599907,
        "Longitude": -71.065214,
        "Distance (km)": 0.55,
        "session_id": "bb613a78-1807-45d1-a953-1341b7333969",
        "generatedAt": "2025-03-26T08:41:32.528160"
    },
    {
        "Name": "Boston Sign",
        "address": "28 State St, Boston, MA 02109",
        "Rating": 4.7,
        "Price": null,
        "Opening Hour": "Open 24 hours",
        "Description": "28 State St, Boston, MA 02109, Tourist attraction",
        "Latitude": 42.359769899999996,
        "Longitude": -71.0576758,
        "Distance (km)": 0.12,
        "session_id": "bb613a78-1807-45d1-a953-1341b7333969",
        "generatedAt": "2025-03-26T08:41:32.528160"
    },
    {
        "Name": "Boston Irish Famine Memorial",
        "address": "Boston, MA 02108",
        "Rating": 4.6,
        "Price": null,
        "Opening Hour": "Open 24 hours",
        "Description": "Boston, MA 02108, Tourist attraction",
        "Latitude": 42.357357,
        "Longitude": -71.0586014,
        "Distance (km)": 0.18,
        "session_id": "bb613a78-1807-45d1-a953-1341b7333969",
        "generatedAt": "2025-03-26T08:41:32.528160"
    },
    {
        "Name": "Harvard Square",
        "address": "Brattle St, Cambridge, MA 02138",
        "Rating": 4.5,
        "Price": null,
        "Opening Hour": "Open 24 hours",
        "Description": "Brattle St, Cambridge, MA 02138, Tourist attraction",
        "Latitude": 42.373464999999996,
        "Longitude": -71.1189467,
        "Distance (km)": 5.21,
        "session_id": "bb613a78-1807-45d1-a953-1341b7333969",
        "generatedAt": "2025-03-26T08:41:32.528160"
    },
    {
        "Name": "Harborwalk Lookout Terrace",
        "address": "25 Fan Pier Boulevard, Boston, MA 02210",
        "Rating": 4.8,
        "Price": null,
        "Opening Hour": "Open 24 hours",
        "Description": "25 Fan Pier Boulevard, Boston, MA 02210, Tourist attraction",
        "Latitude": 42.354721999999995,
        "Longitude": -71.044459,
        "Distance (km)": 1.26,
        "session_id": "bb613a78-1807-45d1-a953-1341b7333969",
        "generatedAt": "2025-03-26T08:41:32.528160"
    },
    {
        "Name": "Boston Waterfront",
        "address": "1 Marina Park Drive, Boston, MA 02210",
        "Rating": 4.9,
        "Price": null,
        "Opening Hour": "Open 24 hours",
        "Description": "1 Marina Park Drive, Boston, MA 02210, Tourist attraction",
        "Latitude": 42.354529,
        "Longitude": -71.043897,
        "Distance (km)": 1.31,
        "session_id": "bb613a78-1807-45d1-a953-1341b7333969",
        "generatedAt": "2025-03-26T08:41:32.528160"
    },
    {
        "Name": "Harborwalk",
        "address": "Boston, MA 02128",
        "Rating": 4.8,
        "Price": null,
        "Opening Hour": "Open 24 hours",
        "Description": "Boston, MA 02128, Tourist attraction",
        "Latitude": 42.3622229,
        "Longitude": -71.0508712,
        "Distance (km)": 0.73,
        "session_id": "bb613a78-1807-45d1-a953-1341b7333969",
        "generatedAt": "2025-03-26T08:41:32.528160"
    },
    {
        "Name": "Chinatown Gate",
        "address": "John F Fitzgerald Surface Rd &, Beach St, Boston, MA 02111",
        "Rating": 4.4,
        "Price": null,
        "Opening Hour": "Open 24 hours",
        "Description": "John F Fitzgerald Surface Rd &, Beach St, Boston, MA 02111, Tourist attraction",
        "Latitude": 42.3512193,
        "Longitude": -71.05976179999999,
        "Distance (km)": 0.87,
        "session_id": "bb613a78-1807-45d1-a953-1341b7333969",
        "generatedAt": "2025-03-26T08:41:32.528160"
    }
]