[
    {
        "Address": "909 Franklin St, Houston, TX 77002",
        "Distance (km)": 0.9,
        "Latitude": 29.7635455,
        "Longitude": -95.360686,
        "Name": "La Calle Tacos",
        "Opening Hour": "Open \u22c5 Closes 2\u202fAM \u22c5 Reopens 9\u202fAM",
        "Price": "$10\u201320",
        "Rating": 4.4
    },
    {
        "Address": "1010 Prairie St, Houston, TX 77002",
        "Distance (km)": 0.76,
        "Latitude": 29.760246799999997,
        "Longitude": -95.36167619999999,
        "Name": "Birria Los Primos",
        "Opening Hour": "Closes soon \u22c5 1\u202fAM \u22c5 Reopens 11\u202fAM",
        "Price": "$10\u201320",
        "Rating": 4.7
    },
    {
        "Address": "1010 Prairie St, Houston, TX 77002",
        "Distance (km)": 0.77,
        "Latitude": 29.760375399999997,
        "Longitude": -95.3615923,
        "Name": "Wokker",
        "Opening Hour": "Closes soon \u22c5 1\u202fAM \u22c5 Reopens 11\u202fAM",
        "Price": "$10\u201320",
        "Rating": 4.2
    },
    {
        "Address": "415 Milam St, Houston, TX 77002",
        "Distance (km)": 0.6,
        "Latitude": 29.7619112,
        "Longitude": -95.3634041,
        "Name": "Space City Birria",
        "Opening Hour": "Open \u22c5 Closes 2\u202fAM \u22c5 Reopens 11\u202fAM",
        "Price": "$10\u201320",
        "Rating": 4.8
    },
    {
        "Address": "1001 Texas St Suite 150, Houston, TX 77002",
        "Distance (km)": 0.72,
        "Latitude": 29.760042,
        "Longitude": -95.362112,
        "Name": "Little New Orleans",
        "Opening Hour": "Open \u22c5 Closes 2\u202fAM \u22c5 Reopens 10\u202fAM",
        "Price": "$10\u201320",
        "Rating": 4.2
    },
    {
        "Address": "407 Main St, Houston, TX 77002",
        "Distance (km)": 0.78,
        "Latitude": 29.7612067,
        "Longitude": -95.36140329999999,
        "Name": "Bungalow",
        "Opening Hour": "Closed \u22c5 Opens 11\u202fAM",
        "Price": "$100+",
        "Rating": 4.5
    },
    {
        "Address": "213 Milam St, Houston, TX 77002",
        "Distance (km)": 0.78,
        "Latitude": 29.763516199999998,
        "Longitude": -95.362068,
        "Name": "La Fisheria",
        "Opening Hour": "Closed \u22c5 Opens 11\u202fAM",
        "Price": "$30\u201350",
        "Rating": 4.7
    },
    {
        "Address": "1010 Prairie St, Houston, TX 77002",
        "Distance (km)": 0.77,
        "Latitude": 29.760375399999997,
        "Longitude": -95.3615923,
        "Name": "Underground Hall",
        "Opening Hour": "Closes soon \u22c5 1\u202fAM \u22c5 Reopens 11\u202fAM",
        "Price": "$10\u201320",
        "Rating": 4.5
    },
    {
        "Address": "410 Bagby St, Houston, TX 77002",
        "Distance (km)": 0.47,
        "Latitude": 29.7646083,
        "Longitude": -95.3672727,
        "Name": "Aquarium Restaurant",
        "Opening Hour": "Closed \u22c5 Opens 11\u202fAM",
        "Price": "$20\u201330",
        "Rating": 4.4
    },
    {
        "Address": "909 Texas St Suite E, Houston, TX 77002",
        "Distance (km)": 0.65,
        "Latitude": 29.760529199999997,
        "Longitude": -95.36279689999999,
        "Name": "Mamajuana Cafe",
        "Opening Hour": "Open \u22c5 Closes 2\u202fAM \u22c5 Reopens 12\u202fPM",
        "Price": null,
        "Rating": 4.5
    },
    {
        "Address": "400 Dallas St, Houston, TX 77002",
        "Distance (km)": 0.36,
        "Latitude": 29.7578478,
        "Longitude": -95.3710462,
        "Name": "C. Baldwin, Curio Collection by Hilton",
        "Opening Hour": null,
        "Price": "$173",
        "Rating": 3.9
    },
    {
        "Address": "915 W Dallas St, Houston, TX 77019",
        "Distance (km)": 0.86,
        "Latitude": 29.7573758,
        "Longitude": -95.3774402,
        "Name": "Best Western Plus Downtown Inn & Suites",
        "Opening Hour": null,
        "Price": "$119",
        "Rating": 4.6
    },
    {
        "Address": "701 Texas Ave, Houston, TX 77002",
        "Distance (km)": 0.46,
        "Latitude": 29.761499999999998,
        "Longitude": -95.3648,
        "Name": "The Lancaster Hotel",
        "Opening Hour": null,
        "Price": "$201",
        "Rating": 4.7
    },
    {
        "Address": "1700 Smith St, Houston, TX 77002",
        "Distance (km)": 0.9,
        "Latitude": 29.753411099999997,
        "Longitude": -95.37342249999999,
        "Name": "The Whitehall",
        "Opening Hour": null,
        "Price": "$113",
        "Rating": 4.4
    },
    {
        "Address": "1085 Rusk St, Houston, TX 77002",
        "Distance (km)": 0.7,
        "Latitude": 29.7581031,
        "Longitude": -95.36292619999999,
        "Name": "Club Quarters Hotel Downtown, Houston",
        "Opening Hour": null,
        "Price": "$146",
        "Rating": 3.9
    },
    {
        "Address": "710 Crawford St, Houston, TX 77002",
        "Distance (km)": 1.2,
        "Latitude": 29.7556479,
        "Longitude": -95.3586369,
        "Name": "Hampton Inn Houston Downtown",
        "Opening Hour": null,
        "Price": "$182",
        "Rating": 4.2
    },
    {
        "Address": "1777 Walker St, Houston, TX 77010",
        "Distance (km)": 1.31,
        "Latitude": 29.7544464,
        "Longitude": -95.3581201,
        "Name": "Marriott Marquis Houston",
        "Opening Hour": null,
        "Price": "$709",
        "Rating": 4.4
    },
    {
        "Address": "1515 Dallas St, Houston, TX 77010",
        "Distance (km)": 1.17,
        "Latitude": 29.752999199999998,
        "Longitude": -95.3613409,
        "Name": "Embassy Suites by Hilton Houston Downtown",
        "Opening Hour": null,
        "Price": "$232",
        "Rating": 4.3
    },
    {
        "Address": "220 Main St, Houston, TX 77002",
        "Distance (km)": 0.86,
        "Latitude": 29.762578299999998,
        "Longitude": -95.36088509999999,
        "Name": "Hotel ICON, Autograph Collection",
        "Opening Hour": null,
        "Price": "$217",
        "Rating": 4.3
    },
    {
        "Address": "1616 Main St, Houston, TX 77002",
        "Distance (km)": 0.97,
        "Latitude": 29.752092299999997,
        "Longitude": -95.36915979999999,
        "Name": "Holiday Inn Houston Downtown, an IHG Hotel",
        "Opening Hour": null,
        "Price": "$146",
        "Rating": 4
    }
]