[
    {
        "Address": "255 State St, Boston, MA 02109",
        "Description": "255 State St, Boston, MA 02109, American restaurant",
        "Distance (km)": 0.6,
        "Latitude": 42.3595128,
        "Longitude": -71.05141689999999,
        "Name": "State Street Provisions",
        "Opening Hour": "Closed \u22c5 Opens 9\u202fAM",
        "Price": "$20\u201330",
        "Rating": 4.4
    },
    {
        "Address": "316 Cambridge St, Boston, MA 02114",
        "Description": "316 Cambridge St, Boston, MA 02114, American restaurant",
        "Distance (km)": 0.87,
        "Latitude": 42.360930599999996,
        "Longitude": -71.0689398,
        "Name": "Harvard Gardens",
        "Opening Hour": "Closed \u22c5 Opens 11\u202fAM",
        "Price": "$20\u201330",
        "Rating": 4.4
    },
    {
        "Address": "545 Washington St, Boston, MA 02111",
        "Description": "545 Washington St, Boston, MA 02111, Creole restaurant",
        "Distance (km)": 0.64,
        "Latitude": 42.353895,
        "Longitude": -71.0623501,
        "Name": "French Quarter",
        "Opening Hour": "Closed \u22c5 Opens 11:30\u202fAM",
        "Price": "$30\u201350",
        "Rating": 4.4
    },
    {
        "Address": "280 Cambridge St, Boston, MA 02114",
        "Description": "280 Cambridge St, Boston, MA 02114, Pizza restaurant",
        "Distance (km)": 0.8,
        "Latitude": 42.360964599999996,
        "Longitude": -71.0680488,
        "Name": "Felcaro Pizzeria",
        "Opening Hour": "Closes soon \u22c5 2:30\u202fAM \u22c5 Reopens 11\u202fAM",
        "Price": "$10\u201320",
        "Rating": 3.8
    },
    {
        "Address": "6 Beacon St, Boston, MA 02108",
        "Description": "6 Beacon St, Boston, MA 02108, Irish restaurant",
        "Distance (km)": 0.26,
        "Latitude": 42.3581498,
        "Longitude": -71.061521,
        "Name": "Emmets",
        "Opening Hour": "Closed \u22c5 Opens 11\u202fAM",
        "Price": "$20\u201330",
        "Rating": 4.5
    },
    {
        "Address": "60 Long Wharf, Boston, MA 02110",
        "Description": "60 Long Wharf, Boston, MA 02110, Seafood restaurant",
        "Distance (km)": 0.76,
        "Latitude": 42.3601688,
        "Longitude": -71.0495078,
        "Name": "Chart House",
        "Opening Hour": "Closed \u22c5 Opens 11\u202fAM",
        "Price": "$50\u2013100",
        "Rating": 4.2
    },
    {
        "Address": "45 Province St, Boston, MA 02108",
        "Description": "45 Province St, Boston, MA 02108, Italian restaurant",
        "Distance (km)": 0.25,
        "Latitude": 42.3570616,
        "Longitude": -71.06011409999999,
        "Name": "MAST'",
        "Opening Hour": "Closed \u22c5 Opens 4\u202fPM",
        "Price": "$20\u201330",
        "Rating": 4.1
    },
    {
        "Address": "162 Salem St, Boston, MA 02113",
        "Description": "162 Salem St, Boston, MA 02113, American restaurant",
        "Distance (km)": 0.84,
        "Latitude": 42.3660533,
        "Longitude": -71.055026,
        "Name": "Theo's Cozy Corner Restaurant",
        "Opening Hour": "Closed \u22c5 Opens 6\u202fAM",
        "Price": "$10\u201320",
        "Rating": 4.7
    },
    {
        "Address": "131 State St, Boston, MA 02109",
        "Description": "131 State St, Boston, MA 02109, American restaurant",
        "Distance (km)": 0.35,
        "Latitude": 42.3591358,
        "Longitude": -71.05440999999999,
        "Name": "Bostonia Public House",
        "Opening Hour": "Closed \u22c5 Opens 9\u202fAM",
        "Price": "$30\u201350",
        "Rating": 4.4
    },
    {
        "Address": "155 Milk St, Boston, MA 02109",
        "Description": "155 Milk St, Boston, MA 02109, Fast food restaurant",
        "Distance (km)": 0.4,
        "Latitude": 42.3578526,
        "Longitude": -71.0540633,
        "Name": "Flavor Boom! Milk Street",
        "Opening Hour": "Closed \u22c5 Opens 11\u202fAM",
        "Price": "$10\u201320",
        "Rating": 4.8
    },
    {
        "Address": "26 North St, Boston, MA 02109",
        "Description": "26 North St, Boston, MA 02109, Hotel",
        "Distance (km)": 0.32,
        "Latitude": 42.3609819,
        "Longitude": -71.05586439999999,
        "Name": "The Bostonian Hotel Boston",
        "Opening Hour": null,
        "Price": "$177",
        "Rating": 4.2
    },
    {
        "Address": "234 Friend St, Boston, MA 02114",
        "Description": "234 Friend St, Boston, MA 02114, Hotel",
        "Distance (km)": 0.63,
        "Latitude": 42.364340399999996,
        "Longitude": -71.0611284,
        "Name": "Meco Hotels",
        "Opening Hour": null,
        "Price": "$110",
        "Rating": 4.5
    },
    {
        "Address": "70 Causeway St, Boston, MA 02114",
        "Description": "70 Causeway St, Boston, MA 02114, Hotel",
        "Distance (km)": 0.78,
        "Latitude": 42.365561799999995,
        "Longitude": -71.0618501,
        "Name": "citizenM Boston North Station hotel",
        "Opening Hour": null,
        "Price": "$177",
        "Rating": 4.3
    },
    {
        "Address": "185 State St, Boston, MA 02109",
        "Description": "185 State St, Boston, MA 02109, Hotel",
        "Distance (km)": 0.47,
        "Latitude": 42.359238399999995,
        "Longitude": -71.0528824,
        "Name": "Harborside Inn",
        "Opening Hour": null,
        "Price": "$167",
        "Rating": 4.3
    },
    {
        "Address": "5 Blossom St, Boston, MA 02114",
        "Description": "5 Blossom St, Boston, MA 02114, Hotel",
        "Distance (km)": 0.73,
        "Latitude": 42.361719,
        "Longitude": -71.0667014,
        "Name": "Wyndham Boston Beacon Hill",
        "Opening Hour": null,
        "Price": "$178",
        "Rating": 3.8
    },
    {
        "Address": "60 School St, Boston, MA 02108",
        "Description": "60 School St, Boston, MA 02108, Hotel",
        "Distance (km)": 0.18,
        "Latitude": 42.3577637,
        "Longitude": -71.06010599999999,
        "Name": "Omni Parker House",
        "Opening Hour": null,
        "Price": "$214",
        "Rating": 4.1
    },
    {
        "Address": "107 Merrimac St, Boston, MA 02114",
        "Description": "107 Merrimac St, Boston, MA 02114, Hotel",
        "Distance (km)": 0.63,
        "Latitude": 42.3638797,
        "Longitude": -71.06251569999999,
        "Name": "The Boxer Boston",
        "Opening Hour": null,
        "Price": "$166",
        "Rating": 4.1
    },
    {
        "Address": "505 Washington St, Boston, MA 02111",
        "Description": "505 Washington St, Boston, MA 02111, Hotel",
        "Distance (km)": 0.53,
        "Latitude": 42.354720199999996,
        "Longitude": -71.06152039999999,
        "Name": "The Godfrey Hotel Boston",
        "Opening Hour": null,
        "Price": "$206",
        "Rating": 4.5
    },
    {
        "Address": "280 Friend St, Boston, MA 02114",
        "Description": "280 Friend St, Boston, MA 02114, Hotel",
        "Distance (km)": 0.69,
        "Latitude": 42.3647851,
        "Longitude": -71.0615984,
        "Name": "Hotel Indigo Boston Garden, an IHG Hotel",
        "Opening Hour": null,
        "Price": "$199",
        "Rating": 4.1
    },
    {
        "Address": "296 State St, Boston, MA 02109",
        "Description": "296 State St, Boston, MA 02109, Hotel",
        "Distance (km)": 0.63,
        "Latitude": 42.3599928,
        "Longitude": -71.0510743,
        "Name": "Boston Marriott Long Wharf",
        "Opening Hour": null,
        "Price": "$366",
        "Rating": 4.4
    },
    {
        "Address": "1 Science Pk, Boston, MA 02114",
        "Description": "1 Science Pk, Boston, MA 02114, Museum",
        "Distance (km)": 1.4,
        "Latitude": 42.367714,
        "Longitude": -71.0709771,
        "Name": "Museum of Science",
        "Opening Hour": "Closed \u22c5 Opens 9\u202fAM",
        "Price": null,
        "Rating": 4.7
    },
    {
        "Address": "Across from Faneuil Hall and Quincy Market, 200 State St #2, Boston, MA 02109",
        "Description": "Across from Faneuil Hall and Quincy Market, 200 State St #2, Boston, MA 02109, Museum",
        "Distance (km)": 0.44,
        "Latitude": 42.3599184,
        "Longitude": -71.0534473,
        "Name": "Museum of Illusions Boston",
        "Opening Hour": "Closed \u22c5 Opens 9\u202fAM",
        "Price": null,
        "Rating": 4.8
    },
    {
        "Address": "308 Congress St, Boston, MA 02210",
        "Description": "308 Congress St, Boston, MA 02210, Children's museum",
        "Distance (km)": 1.07,
        "Latitude": 42.3519736,
        "Longitude": -71.04968389999999,
        "Name": "Boston Children's Museum",
        "Opening Hour": "Closed \u22c5 Opens 9\u202fAM",
        "Price": null,
        "Rating": 4.7
    },
    {
        "Address": "150 Staniford Street Suite 7 (on, Lomasney Wy, Boston, MA 02114",
        "Description": "150 Staniford Street Suite 7 (on, Lomasney Wy, Boston, MA 02114, Museum",
        "Distance (km)": 0.78,
        "Latitude": 42.364732499999995,
        "Longitude": -71.0640614,
        "Name": "The West End Museum",
        "Opening Hour": "Closed \u22c5 Opens 1:30\u202fPM",
        "Price": null,
        "Rating": 4.7
    },
    {
        "Address": "500 Washington St, Boston, MA 02111",
        "Description": "500 Washington St, Boston, MA 02111, Tourist attraction",
        "Distance (km)": 0.55,
        "Latitude": 42.3544714,
        "Longitude": -71.0612376,
        "Name": "WNDR Museum",
        "Opening Hour": "Closed \u22c5 Opens 10\u202fAM",
        "Price": null,
        "Rating": 4.6
    },
    {
        "Address": "1 Faneuil Hall Market Pl, Boston, MA 02109",
        "Description": "1 Faneuil Hall Market Pl, Boston, MA 02109, Museum",
        "Distance (km)": 0.24,
        "Latitude": 42.360093299999996,
        "Longitude": -71.0560789,
        "Name": "Bostonian Society Museum Shop",
        "Opening Hour": null,
        "Price": null,
        "Rating": 4.3
    },
    {
        "Address": "206 Washington St, Boston, MA 02109",
        "Description": "206 Washington St, Boston, MA 02109, History museum",
        "Distance (km)": 0.1,
        "Latitude": 42.3587352,
        "Longitude": -71.05745399999999,
        "Name": "Old State House",
        "Opening Hour": "Closed \u22c5 Opens 10\u202fAM",
        "Price": null,
        "Rating": 4.6
    },
    {
        "Address": "306 Congress St, Boston, MA 02210",
        "Description": "306 Congress St, Boston, MA 02210, Museum",
        "Distance (km)": 0.97,
        "Latitude": 42.3521821,
        "Longitude": -71.0512911,
        "Name": "Boston Tea Party Ships & Museum",
        "Opening Hour": "Closed \u22c5 Opens 10\u202fAM",
        "Price": null,
        "Rating": 4.6
    },
    {
        "Address": "Boston, MA 02114",
        "Description": "Boston, MA 02114, Museum",
        "Distance (km)": 0.91,
        "Latitude": 42.3634637,
        "Longitude": -71.0679234,
        "Name": "Ether Dome",
        "Opening Hour": "Closed \u22c5 Opens 8:30\u202fAM Mon",
        "Price": null,
        "Rating": 4.9
    },
    {
        "Address": "55 Mt Vernon St, Boston, MA 02108",
        "Description": "55 Mt Vernon St, Boston, MA 02108, Museum",
        "Distance (km)": 0.61,
        "Latitude": 42.3584347,
        "Longitude": -71.0659533,
        "Name": "Nichols House Museum",
        "Opening Hour": "Closed \u22c5 Opens 11\u202fAM",
        "Price": null,
        "Rating": 4.7
    },
    {
        "Address": "42 Province St, Boston, MA 02108",
        "Description": "42 Province St, Boston, MA 02108, Video arcade",
        "Distance (km)": 0.25,
        "Latitude": 42.3569387,
        "Longitude": -71.0599056,
        "Name": "VERSUS",
        "Opening Hour": "Closed \u22c5 Opens 5\u202fPM",
        "Price": null,
        "Rating": 4.4
    },
    {
        "Address": "87 Pier 4 Blvd., Boston, MA 02210",
        "Description": "87 Pier 4 Blvd., Boston, MA 02210, Video arcade",
        "Distance (km)": 1.49,
        "Latitude": 42.3507605,
        "Longitude": -71.04433399999999,
        "Name": "F1 Arcade Boston",
        "Opening Hour": "Closed \u22c5 Opens 11\u202fAM",
        "Price": "$$",
        "Rating": 4.5
    },
    {
        "Address": "262 Friend St, Boston, MA 02114",
        "Description": "262 Friend St, Boston, MA 02114, Video arcade",
        "Distance (km)": 0.66,
        "Latitude": 42.3644788,
        "Longitude": -71.0618068,
        "Name": "SkeeBOSTON Skeeball League",
        "Opening Hour": "Closed \u22c5 Opens 6:30\u202fPM Wed",
        "Price": null,
        "Rating": 5
    },
    {
        "Address": "292 Massachusetts Ave, Cambridge, MA 02139",
        "Description": "292 Massachusetts Ave, Cambridge, MA 02139, Video arcade",
        "Distance (km)": 3.29,
        "Latitude": 42.3620629,
        "Longitude": -71.09839389999999,
        "Name": "Roxy's Arcade",
        "Opening Hour": "Closed \u22c5 Opens 5\u202fPM Mon",
        "Price": "$$",
        "Rating": 4.3
    },
    {
        "Address": "60 Seaport Blvd, Boston, MA 02210",
        "Description": "60 Seaport Blvd, Boston, MA 02210, Restaurant",
        "Distance (km)": 1.15,
        "Latitude": 42.353018899999995,
        "Longitude": -71.0471523,
        "Name": "Kings Dining & Entertainment",
        "Opening Hour": "Closed \u22c5 Opens 11:30\u202fAM",
        "Price": "$20\u201330",
        "Rating": 4.3
    },
    {
        "Address": "580 Massachusetts Ave Unit 580, Cambridge, MA 02139",
        "Description": "580 Massachusetts Ave Unit 580, Cambridge, MA 02139, Video arcade",
        "Distance (km)": 3.69,
        "Latitude": 42.3646463,
        "Longitude": -71.10290239999999,
        "Name": "DxArcade",
        "Opening Hour": "Closed \u22c5 Opens 11\u202fAM",
        "Price": null,
        "Rating": 4.9
    },
    {
        "Address": "50 Dalton St, Boston, MA 02115",
        "Description": "50 Dalton St, Boston, MA 02115, Video arcade",
        "Distance (km)": 2.58,
        "Latitude": 42.3471055,
        "Longitude": -71.08552209999999,
        "Name": "Kings Dining & Entertainment",
        "Opening Hour": "Closed \u22c5 Opens 11:30\u202fAM",
        "Price": "$20\u201330",
        "Rating": 4.1
    },
    {
        "Address": "1 Bow Mkt Wy, Somerville, MA 02143",
        "Description": "1 Bow Mkt Wy, Somerville, MA 02143, Video arcade",
        "Distance (km)": 4.05,
        "Latitude": 42.381008,
        "Longitude": -71.097883,
        "Name": "Pop's Pinball - Bow Market",
        "Opening Hour": "Closed \u22c5 Opens 11\u202fAM",
        "Price": null,
        "Rating": 4.9
    },
    {
        "Address": "530 Commonwealth Ave, Boston, MA 02215",
        "Description": "530 Commonwealth Ave, Boston, MA 02215, Video arcade",
        "Distance (km)": 3.32,
        "Latitude": 42.3484531,
        "Longitude": -71.0963653,
        "Name": "Key To Amaze VR",
        "Opening Hour": "Closed \u22c5 Opens 1\u202fPM",
        "Price": null,
        "Rating": 4.8
    },
    {
        "Address": "110 Causeway St, Boston, MA 02114",
        "Description": "110 Causeway St, Boston, MA 02114, Night club",
        "Distance (km)": 0.79,
        "Latitude": 42.365824599999996,
        "Longitude": -71.061083,
        "Name": "PLAY Boston",
        "Opening Hour": "Closed \u22c5 Opens 5\u202fPM",
        "Price": "$$",
        "Rating": 3.6
    },
    {
        "Address": "30 School St, Boston, MA 02108",
        "Description": "30 School St, Boston, MA 02108, Tourist attraction",
        "Distance (km)": 0.16,
        "Latitude": 42.3575947,
        "Longitude": -71.0592341,
        "Name": "The Innovation Trail",
        "Opening Hour": "Open 24 hours",
        "Price": null,
        "Rating": 5
    },
    {
        "Address": "1 Courthouse Wy, Boston, MA 02210",
        "Description": "1 Courthouse Wy, Boston, MA 02210, Tourist attraction",
        "Distance (km)": 1.12,
        "Latitude": 42.354875299999996,
        "Longitude": -71.0462482,
        "Name": "Fan Pier Park",
        "Opening Hour": "Open 24 hours",
        "Price": null,
        "Rating": 4.8
    },
    {
        "Address": "46 Joy St, Boston, MA 02114",
        "Description": "46 Joy St, Boston, MA 02114, Tourist attraction",
        "Distance (km)": 0.55,
        "Latitude": 42.3599907,
        "Longitude": -71.065214,
        "Name": "Black Heritage Trail",
        "Opening Hour": "Closed \u22c5 Opens 10\u202fAM Tue",
        "Price": null,
        "Rating": 4.5
    },
    {
        "Address": "28 State St, Boston, MA 02109",
        "Description": "28 State St, Boston, MA 02109, Tourist attraction",
        "Distance (km)": 0.12,
        "Latitude": 42.359769899999996,
        "Longitude": -71.0576758,
        "Name": "Boston Sign",
        "Opening Hour": "Open 24 hours",
        "Price": null,
        "Rating": 4.7
    },
    {
        "Address": "Boston, MA 02108",
        "Description": "Boston, MA 02108, Tourist attraction",
        "Distance (km)": 0.18,
        "Latitude": 42.357357,
        "Longitude": -71.0586014,
        "Name": "Boston Irish Famine Memorial",
        "Opening Hour": "Open 24 hours",
        "Price": null,
        "Rating": 4.6
    },
    {
        "Address": "25 Fan Pier Boulevard, Boston, MA 02210",
        "Description": "25 Fan Pier Boulevard, Boston, MA 02210, Tourist attraction",
        "Distance (km)": 1.26,
        "Latitude": 42.354721999999995,
        "Longitude": -71.044459,
        "Name": "Harborwalk Lookout Terrace",
        "Opening Hour": "Open 24 hours",
        "Price": null,
        "Rating": 4.8
    },
    {
        "Address": "1 Marina Park Drive, Boston, MA 02210",
        "Description": "1 Marina Park Drive, Boston, MA 02210, Tourist attraction",
        "Distance (km)": 1.31,
        "Latitude": 42.354529,
        "Longitude": -71.043897,
        "Name": "Boston Waterfront",
        "Opening Hour": "Open 24 hours",
        "Price": null,
        "Rating": 4.9
    },
    {
        "Address": "Boston, MA 02128",
        "Description": "Boston, MA 02128, Tourist attraction",
        "Distance (km)": 0.73,
        "Latitude": 42.3622229,
        "Longitude": -71.0508712,
        "Name": "Harborwalk",
        "Opening Hour": "Open 24 hours",
        "Price": null,
        "Rating": 4.8
    },
    {
        "Address": "John F Fitzgerald Surface Rd &, Beach St, Boston, MA 02111",
        "Description": "John F Fitzgerald Surface Rd &, Beach St, Boston, MA 02111, Tourist attraction",
        "Distance (km)": 0.87,
        "Latitude": 42.3512193,
        "Longitude": -71.05976179999999,
        "Name": "Chinatown Gate",
        "Opening Hour": "Open 24 hours",
        "Price": null,
        "Rating": 4.4
    },
    {
        "Address": "310 Washington St, Boston, MA 02109",
        "Description": "310 Washington St, Boston, MA 02109, Tourist attraction",
        "Distance (km)": 0.09,
        "Latitude": 42.358705099999995,
        "Longitude": -71.05757129999999,
        "Name": "Revolutionary Spaces",
        "Opening Hour": "Closed \u22c5 Opens 10\u202fAM",
        "Price": null,
        "Rating": 4.4
    }
]