[
    {
        "Address": "255 S King St, Seattle, WA 98104",
        "Description": "255 S King St, Seattle, WA 98104, Hotel",
        "Distance (km)": 0.57,
        "Latitude": 47.598078099999995,
        "Longitude": -122.33093,
        "Name": "Embassy Suites by Hilton Seattle Downtown Pioneer Square",
        "Opening Hour": null,
        "Price": "$191",
        "Rating": 4.5
    },
    {
        "Address": "1301 6th Ave, Seattle, WA 98101",
        "Description": "1301 6th Ave, Seattle, WA 98101, Hotel",
        "Distance (km)": 0.72,
        "Latitude": 47.6094,
        "Longitude": -122.33326799999999,
        "Name": "Coast Seattle Downtown Hotel by APA",
        "Opening Hour": null,
        "Price": "$92",
        "Rating": 3.9
    },
    {
        "Address": "520 S King St, Seattle, WA 98104",
        "Description": "520 S King St, Seattle, WA 98104, Hostel",
        "Distance (km)": 0.59,
        "Latitude": 47.5985211,
        "Longitude": -122.32674809999999,
        "Name": "The American Hotel Hostel",
        "Opening Hour": null,
        "Price": "$101",
        "Rating": 4.1
    },
    {
        "Address": "400 Spring St, Seattle, WA 98104",
        "Description": "400 Spring St, Seattle, WA 98104, Hotel",
        "Distance (km)": 0.49,
        "Latitude": 47.6070892,
        "Longitude": -122.333406,
        "Name": "Executive Hotel Pacific",
        "Opening Hour": null,
        "Price": "$88",
        "Rating": 3.5
    },
    {
        "Address": "77 Yesler Wy, Seattle, WA 98104",
        "Description": "77 Yesler Wy, Seattle, WA 98104, Hotel",
        "Distance (km)": 0.42,
        "Latitude": 47.6015612,
        "Longitude": -122.3353001,
        "Name": "Best Western Plus Pioneer Square Hotel Downtown",
        "Opening Hour": null,
        "Price": "$128",
        "Rating": 4.3
    },
    {
        "Address": "105 Pike St, Seattle, WA 98101",
        "Description": "105 Pike St, Seattle, WA 98101, Hostel",
        "Distance (km)": 0.94,
        "Latitude": 47.608866,
        "Longitude": -122.33955789999999,
        "Name": "Green Tortoise Hostel Seattle",
        "Opening Hour": null,
        "Price": "$71",
        "Rating": 4.5
    },
    {
        "Address": "60 Yesler Wy, Seattle, WA 98104",
        "Description": "60 Yesler Wy, Seattle, WA 98104, Hotel",
        "Distance (km)": 0.44,
        "Latitude": 47.601957899999995,
        "Longitude": -122.3358186,
        "Name": "citizenM Seattle Pioneer Square hotel",
        "Opening Hour": null,
        "Price": "$147",
        "Rating": 4.3
    }
]